<?xml version="1.0"?>
<gpx version="1.1" creator="Xcode"> 

    
    <wpt lat="42.246950" lon="-71.461807">
      <name>AQUADUCT</name>
      <desc>Aquaduct</desc>
      <sym>Dam</sym>
      <type>Dam</type>
    </wpt>
    <wpt lat="42.261090" lon="-71.463360">
      <ele>57.302400</ele>
      <desc>Ashland</desc>
      <sym>City (Medium)</sym>
      <type>Populated Place</type>
    </wpt>
    <wpt lat="42.251650" lon="-71.475030">
      <desc>Ashland Junior High School</desc>
      <sym>School</sym>
      <type>School</type>
    </wpt>
    <wpt lat="42.244814" lon="-71.463566">
      <name>FISH3</name>
      <desc>Ashland Reservoir</desc>
      <sym>Fishing Area</sym>
      <type>Reservoir</type>
    </wpt>
    <wpt lat="42.240618" lon="-71.464372">
      <name>FISH4</name>
      <desc>Ashland Reservoir</desc>
      <sym>Fishing Area</sym>
      <type>Reservoir</type>
    </wpt>
    <wpt lat="42.237228" lon="-71.466227">
      <name>FISH2</name>
      <desc>Ashland Reservoir</desc>
      <sym>Fishing Area</sym>
      <type>Reservoir</type>
    </wpt>
    <wpt lat="42.249980" lon="-71.457800">
      <ele>66.751200</ele>
      <desc>Ashland Reservoir</desc>
      <sym>Waypoint</sym>
      <type>Reservoir</type>
    </wpt>
    <wpt lat="42.234756" lon="-71.470591">
      <name>FISH</name>
      <desc>Ashland Reservoir</desc>
      <sym>Fishing Area</sym>
      <type>Reservoir</type>
    </wpt>
    <wpt lat="42.249980" lon="-71.457800">
      <desc>Ashland Reservoir Dam</desc>
      <sym>Dam</sym>
      <type>Dam</type>
    </wpt>
    <wpt lat="42.244198" lon="-71.466233">
      <name>BEACH</name>
      <desc>Beach</desc>
      <sym>Picnic Area</sym>
      <type>Beach</type>
    </wpt>
    <wpt lat="42.230185" lon="-71.475453">
      <name>BROOK</name>
      <desc>Brook</desc>
      <sym>Fishing Area</sym>
      <type>Brook</type>
    </wpt>
    <wpt lat="42.244674" lon="-71.465658">
      <ele>74.401680</ele>
      <time>2002-04-21T20:12:01Z</time>
      <name>BUILDING</name>
      <desc>Building</desc>
      <sym>Building</sym>
      <type>Dot</type>
    </wpt>
    <wpt lat="42.238813" lon="-71.472931">
      <name>CAMPGROUND</name>
      <desc>Campground</desc>
      <sym>Campground</sym>
      <type>Campground</type>
    </wpt>
    <wpt lat="42.244234" lon="-71.470428">
      <name>ENTRANCE</name>
      <desc>Entrance</desc>
      <sym>Building</sym>
      <type>Building</type>
    </wpt>
    <wpt lat="42.242238" lon="-71.466084">
      <name>HILL</name>
      <desc>Hill</desc>
      <sym>Summit</sym>
      <type>Summit</type>
    </wpt>
    <wpt lat="42.249980" lon="-71.482800">
      <ele>124.968000</ele>
      <desc>Magunco Hill</desc>
      <sym>Summit</sym>
      <type>Summit</type>
    </wpt>
    <wpt lat="42.247466" lon="-71.467984">
      <name>PARKING 2</name>
      <desc>Overflow Parking</desc>
      <sym>Parking Area</sym>
      <type>Parking</type>
    </wpt>
    <wpt lat="42.245149" lon="-71.468500">
      <name>PARKING</name>
      <desc>Parking</desc>
      <sym>Parking Area</sym>
      <type>Parking</type>
    </wpt>
    <wpt lat="42.231594" lon="-71.476243">
      <name>QUARYBUILD</name>
      <desc>Quarry Building</desc>
      <sym>Building</sym>
      <type>Building</type>
    </wpt>
    <wpt lat="42.235352" lon="-71.469693">
      <name>RESERVOIR</name>
      <desc>Reservoir</desc>
      <sym>Dam</sym>
      <type>Dam</type>
    </wpt>
    <wpt lat="42.254700" lon="-71.466140">
      <desc>Romeos Shopping Center</desc>
      <sym>City (Small)</sym>
      <type>Locale</type>
    </wpt>
    <wpt lat="42.240261" lon="-71.487579">
      <name>ROUT135ASP</name>
      <desc>Route 135 ASP</desc>
      <sym>Truck Stop</sym>
      <type>Road</type>
    </wpt>
    <wpt lat="42.244020" lon="-71.466977">
      <name>STREAM</name>
      <desc>Stream</desc>
      <sym>Crossing</sym>
      <type>Stream</type>
    </wpt>
    <wpt lat="42.244646" lon="-71.468539">
      <ele>92.659200</ele>
      <time>2002-04-21T20:12:01Z</time>
      <name>TRANSITION</name>
      <desc>The Transition area
        The race started and finished here, and each racer passed through here twice during the race to switch from running to biking, and from biking back to running.</desc>
      <sym>RV Park</sym>
      <type>Dot</type>
    </wpt>
    <wpt lat="42.235540" lon="-71.476690">
      <ele>128.016000</ele>
      <desc>Zachary Hill</desc>
      <sym>Summit</sym>
      <type>Summit</type>
    </wpt>
</gpx>
